% program   : RTKPOST-QT ver.2.4.3 b8
% inp file  : /home/harshad/Work/gps_simulators/gps-sdr-sim/rtk/rover.obs
% inp file  : /home/harshad/Work/gps_simulators/gps-sdr-sim/rtk/base.obs
% inp file  : /home/harshad/Work/gps_simulators/gps-sdr-sim/rtk/rover.nav
% obs start : 2014/12/20 00:00:43.0 GPST (week1823 518443.0s)
% obs end   : 2014/12/20 00:05:00.0 GPST (week1823 518700.0s)
% pos mode  : kinematic
% freqs     : L1+L2
% solution  : forward
% elev mask : 15.0 deg
% dynamics  : off
% tidecorr  : off
% ionos opt : broadcast
% tropo opt : saastamoinen
% ephemeris : broadcast
% amb res   : continuous
% val thres : 3.0
% antenna1  :                       ( 0.0000  0.0000  0.0000)
% antenna2  :                       ( 0.0000  0.0000  0.0000)
% ref pos   : 90.000000000    0.000000000 -6335367.6285
%
% (lat/lon/height=WGS84/ellipsoidal,Q=1:fix,2:float,3:sbas,4:dgps,5:single,6:ppp,ns=# of satellites)
%  GPST                  latitude(deg) longitude(deg)  height(m)   Q  ns   sdn(m)   sde(m)   sdu(m)  sdne(m)  sdeu(m)  sdun(m) age(s)  ratio
2014/12/20 00:00:43.000   35.274012474  137.014875147    87.9827   5   9  30.0000  30.0000  30.0000   0.0000   0.0000   0.0000   0.00    0.0
2014/12/20 00:00:44.000   35.274013273  137.014872778    87.9066   5   9  30.0000  30.0000  30.0000   0.0000   0.0000   0.0000   0.00    0.0
2014/12/20 00:00:45.000   35.274017215  137.014874044    88.0247   5   9  30.0000  30.0000  30.0000   0.0000   0.0000   0.0000   0.00    0.0
2014/12/20 00:00:46.000   35.274016710  137.014874619    88.6755   5   9  30.0000  30.0000  30.0000   0.0000   0.0000   0.0000   0.00    0.0
2014/12/20 00:00:47.000   35.274015525  137.014875875    87.0779   5   9  30.0000  30.0000  30.0000  -0.0000   0.0000   0.0000   0.00    0.0
2014/12/20 00:00:48.000   35.274015113  137.014873037    86.0148   5   9  30.0000  30.0000  30.0000   0.0000  -0.0000   0.0000   0.00    0.0
2014/12/20 00:00:49.000   35.274010805  137.014874450    87.7955   5   9  30.0000  30.0000  30.0000   0.0000   0.0000   0.0000   0.00    0.0
2014/12/20 00:00:50.000   35.274012350  137.014876913    87.2312   5   9  30.0000  30.0000  30.0000   0.0000   0.0000   0.0000   0.00    0.0
2014/12/20 00:00:51.000   35.274008870  137.014882646    87.7285   5   9  30.0000  30.0000  30.0000   0.0000  -0.0000  -0.0000   0.00    0.0
2014/12/20 00:00:52.000   35.274009906  137.014877502    88.4025   5   9  30.0000  30.0000  30.0000   0.0000  -0.0000   0.0000   0.00    0.0
2014/12/20 00:00:53.000   35.274006722  137.014880033    89.7175   5   9  30.0000  30.0000  30.0000   0.0000   0.0000   0.0000   0.00    0.0
2014/12/20 00:00:54.000   35.274007642  137.014884840    91.1445   5   9  30.0000  30.0000  30.0000   0.0000   0.0000  -0.0000   0.00    0.0
2014/12/20 00:00:55.000   35.274007896  137.014882463    90.2540   5   9  30.0000  30.0000  30.0000   0.0000   0.0000   0.0000   0.00    0.0
2014/12/20 00:00:56.000   35.274008450  137.014882876    90.3469   5   9  30.0000  30.0000  30.0000  -0.0000   0.0000   0.0000   0.00    0.0
2014/12/20 00:00:57.000   35.274009574  137.014877623    90.5624   5   9  30.0000  30.0000  30.0000   0.0000  -0.0000  -0.0000   0.00    0.0
2014/12/20 00:00:58.000   35.274006776  137.014881134    90.7202   5   9  30.0000  30.0000  30.0000   0.0000   0.0000  -0.0000   0.00    0.0
2014/12/20 00:00:59.000   35.274009873  137.014877827    90.0609   5   9  30.0000  30.0000  30.0000   0.0000   0.0000   0.0000   0.00    0.0
2014/12/20 00:01:00.000   35.274010635  137.014876797    89.3061   5   9  30.0000  30.0000  30.0000   0.0000   0.0000   0.0000   0.00    0.0
2014/12/20 00:01:01.000   35.274010027  137.014874289    89.4810   5   9  30.0000  30.0000  30.0000  -0.0000   0.0000  -0.0000   0.00    0.0
2014/12/20 00:01:02.000   35.274008396  137.014878087    89.9265   5   9  30.0000  30.0000  30.0000   0.0000   0.0000  -0.0000   0.00    0.0
2014/12/20 00:01:03.000   35.274009273  137.014875115    90.2568   5   9  30.0000  30.0000  30.0000   0.0000  -0.0000   0.0000   0.00    0.0
2014/12/20 00:01:04.000   35.274006223  137.014875548    90.2760   5   9  30.0000  30.0000  30.0000   0.0000   0.0000   0.0000   0.00    0.0
2014/12/20 00:01:05.000   35.274013163  137.014873588    89.4320   5   9  30.0000  30.0000  30.0000   0.0000   0.0000   0.0000   0.00    0.0
2014/12/20 00:01:06.000   35.274011875  137.014874479    88.3797   5   9  30.0000  30.0000  30.0000   0.0000  -0.0000   0.0000   0.00    0.0
2014/12/20 00:01:07.000   35.274005853  137.014874882    89.3050   5   9  30.0000  30.0000  30.0000   0.0000   0.0000  -0.0000   0.00    0.0
2014/12/20 00:01:08.000   35.274011303  137.014870938    89.9903   5   9  30.0000  30.0000  30.0000   0.0000  -0.0000   0.0000   0.00    0.0
2014/12/20 00:01:09.000   35.274011797  137.014870354    89.3158   5   9  30.0000  30.0000  30.0000   0.0000   0.0000  -0.0000   0.00    0.0
2014/12/20 00:01:10.000   35.274016758  137.014865529    87.4534   5   9  30.0000  30.0000  30.0000   0.0000  -0.0000   0.0000   0.00    0.0
2014/12/20 00:01:11.000   35.274014017  137.014863287    88.0354   5   9  30.0000  30.0000  30.0000   0.0000   0.0000   0.0000   0.00    0.0
2014/12/20 00:01:12.000   35.274014298  137.014860655    88.1460   5   9  30.0000  30.0000  30.0000   0.0000  -0.0000   0.0000   0.00    0.0
2014/12/20 00:01:13.000   35.274015770  137.014860354    89.2231   5   9  30.0000  30.0000  30.0000   0.0000   0.0000   0.0000   0.00    0.0
2014/12/20 00:01:14.000   35.274016040  137.014856628    87.5487   5   9  30.0000  30.0000  30.0000   0.0000   0.0000   0.0000   0.00    0.0
2014/12/20 00:01:15.000   35.274018251  137.014860503    87.8816   5   9  30.0000  30.0000  30.0000   0.0000   0.0000  -0.0000   0.00    0.0
2014/12/20 00:01:16.000   35.274020615  137.014859871    87.4563   5   9  30.0000  30.0000  30.0000   0.0000   0.0000   0.0000   0.00    0.0
2014/12/20 00:01:17.000   35.274022040  137.014858177    85.7495   5   9  30.0000  30.0000  30.0000   0.0000   0.0000  -0.0000   0.00    0.0
2014/12/20 00:01:18.000   35.274025632  137.014856262    85.2341   5   9  30.0000  30.0000  30.0000   0.0000   0.0000  -0.0000   0.00    0.0
2014/12/20 00:01:19.000   35.274023554  137.014857751    86.7398   5   9  30.0000  30.0000  30.0000   0.0000   0.0000   0.0000   0.00    0.0
2014/12/20 00:01:20.000   35.274023552  137.014861786    87.3252   5   9  30.0000  30.0000  30.0000   0.0000   0.0000   0.0000   0.00    0.0
2014/12/20 00:01:21.000   35.274025957  137.014857451    87.2649   5   9  30.0000  30.0000  30.0000   0.0000   0.0000  -0.0000   0.00    0.0
2014/12/20 00:01:22.000   35.274021758  137.014859700    87.9570   5   9  30.0000  30.0000  30.0000   0.0000  -0.0000  -0.0000   0.00    0.0
2014/12/20 00:01:23.000   35.274015864  137.014862324    88.8495   5   9  30.0000  30.0000  30.0000   0.0000  -0.0000  -0.0000   0.00    0.0
2014/12/20 00:01:24.000   35.274012617  137.014862263    89.4163   5   9  30.0000  30.0000  30.0000   0.0000   0.0000  -0.0000   0.00    0.0
2014/12/20 00:01:25.000   35.274012755  137.014869310    91.1760   5   9  30.0000  30.0000  30.0000   0.0000   0.0000  -0.0000   0.00    0.0
2014/12/20 00:01:26.000   35.274011364  137.014872695    90.8560   5   9  30.0000  30.0000  30.0000   0.0000   0.0000  -0.0000   0.00    0.0
2014/12/20 00:01:27.000   35.274008010  137.014874661    90.7366   5   9  30.0000  30.0000  30.0000   0.0000   0.0000   0.0000   0.00    0.0
2014/12/20 00:01:28.000   35.274010990  137.014874203    91.1776   5   9  30.0000  30.0000  30.0000  -0.0000   0.0000  -0.0000   0.00    0.0
2014/12/20 00:01:29.000   35.274005405  137.014873360    92.1285   5   9  30.0000  30.0000  30.0000   0.0000   0.0000  -0.0000   0.00    0.0
2014/12/20 00:01:30.000   35.274007183  137.014876060    91.5487   5   9  30.0000  30.0000  30.0000   0.0000  -0.0000  -0.0000   0.00    0.0
2014/12/20 00:01:31.000   35.274003234  137.014875149    91.4691   5   9  30.0000  30.0000  30.0000   0.0000   0.0000   0.0000   0.00    0.0
2014/12/20 00:01:32.000   35.274006210  137.014873570    91.2910   5   9  30.0000  30.0000  30.0000   0.0000   0.0000   0.0000   0.00    0.0
2014/12/20 00:01:33.000   35.274012522  137.014874211    90.0620   5   9  30.0000  30.0000  30.0000   0.0000   0.0000  -0.0000   0.00    0.0
2014/12/20 00:01:34.000   35.274016096  137.014871798    89.1547   5   9  30.0000  30.0000  30.0000   0.0000  -0.0000   0.0000   0.00    0.0
2014/12/20 00:01:35.000   35.274013128  137.014872489    89.6224   5   9  30.0000  30.0000  30.0000   0.0000   0.0000   0.0000   0.00    0.0
2014/12/20 00:01:36.000   35.274014131  137.014867147    90.3669   5   9  30.0000  30.0000  30.0000   0.0000   0.0000  -0.0000   0.00    0.0
2014/12/20 00:01:37.000   35.274015016  137.014866924    88.7858   5   9  30.0000  30.0000  30.0000   0.0000  -0.0000   0.0000   0.00    0.0
2014/12/20 00:01:38.000   35.274011814  137.014869304    90.0221   5   9  30.0000  30.0000  30.0000   0.0000   0.0000  -0.0000   0.00    0.0
2014/12/20 00:01:39.000   35.274014644  137.014870226    89.3400   5   9  30.0000  30.0000  30.0000  -0.0000   0.0000   0.0000   0.00    0.0
2014/12/20 00:01:40.000   35.274014680  137.014868998    88.1488   5   9  30.0000  30.0000  30.0000   0.0000  -0.0000  -0.0000   0.00    0.0
2014/12/20 00:01:41.000   35.274012499  137.014872016    88.2607   5   9  30.0000  30.0000  30.0000   0.0000   0.0000  -0.0000   0.00    0.0
2014/12/20 00:01:42.000   35.274012874  137.014870121    88.9249   5   9  30.0000  30.0000  30.0000   0.0000   0.0000  -0.0000   0.00    0.0
2014/12/20 00:01:43.000   35.274010351  137.014870560    89.5850   5   9  30.0000  30.0000  30.0000   0.0000   0.0000   0.0000   0.00    0.0
2014/12/20 00:01:44.000   35.274011582  137.014868953    89.9363   5   9  30.0000  30.0000  30.0000   0.0000   0.0000  -0.0000   0.00    0.0
2014/12/20 00:01:45.000   35.274014644  137.014870553    89.7226   5   9  30.0000  30.0000  30.0000   0.0000   0.0000   0.0000   0.00    0.0
2014/12/20 00:01:46.000   35.274014317  137.014872746    90.3020   5   9  30.0000  30.0000  30.0000   0.0000   0.0000   0.0000   0.00    0.0
2014/12/20 00:01:47.000   35.274014857  137.014866778    90.0136   5   9  30.0000  30.0000  30.0000   0.0000  -0.0000   0.0000   0.00    0.0
2014/12/20 00:01:48.000   35.274013984  137.014870137    89.0329   5   9  30.0000  30.0000  30.0000   0.0000   0.0000   0.0000   0.00    0.0
2014/12/20 00:01:49.000   35.274013791  137.014871166    89.4223   5   9  30.0000  30.0000  30.0000   0.0000   0.0000   0.0000   0.00    0.0
2014/12/20 00:01:50.000   35.274016189  137.014872201    88.2431   5   9  30.0000  30.0000  30.0000   0.0000   0.0000   0.0000   0.00    0.0
2014/12/20 00:01:51.000   35.274017379  137.014872002    88.2102   5   9  30.0000  30.0000  30.0000   0.0000   0.0000  -0.0000   0.00    0.0
2014/12/20 00:01:52.000   35.274016726  137.014870754    88.4006   5   9  30.0000  30.0000  30.0000   0.0000  -0.0000  -0.0000   0.00    0.0
2014/12/20 00:01:53.000   35.274012357  137.014869675    88.5198   5   9  30.0000  30.0000  30.0000   0.0000   0.0000  -0.0000   0.00    0.0
2014/12/20 00:01:54.000   35.274013183  137.014870429    88.5179   5   9  30.0000  30.0000  30.0000   0.0000   0.0000  -0.0000   0.00    0.0
2014/12/20 00:01:55.000   35.274012855  137.014872337    88.9143   5   9  30.0000  30.0000  30.0000   0.0000   0.0000   0.0000   0.00    0.0
2014/12/20 00:01:56.000   35.274013664  137.014867294    88.8731   5   9  30.0000  30.0000  30.0000   0.0000   0.0000   0.0000   0.00    0.0
2014/12/20 00:01:57.000   35.274013443  137.014866624    89.0535   5   9  30.0000  30.0000  30.0000   0.0000   0.0000   0.0000   0.00    0.0
2014/12/20 00:01:58.000   35.274013913  137.014867739    89.4768   5   9  30.0000  30.0000  30.0000   0.0000  -0.0000   0.0000   0.00    0.0
2014/12/20 00:01:59.000   35.274015187  137.014864346    87.9143   5   9  30.0000  30.0000  30.0000   0.0000   0.0000   0.0000   0.00    0.0
2014/12/20 00:02:00.000   35.274014556  137.014868903    88.9191   5   9  30.0000  30.0000  30.0000   0.0000  -0.0000   0.0000   0.00    0.0
2014/12/20 00:02:01.000   35.274029045  137.014869483    88.6331   5   9  30.0000  30.0000  30.0000   0.0000   0.0000   0.0000   0.00    0.0
2014/12/20 00:02:02.000   35.274055632  137.014867719    89.4445   5   9  30.0000  30.0000  30.0000   0.0000   0.0000   0.0000   0.00    0.0
2014/12/20 00:02:03.000   35.274101184  137.014864547    90.1436   5   9  30.0000  30.0000  30.0000   0.0000  -0.0000   0.0000   0.00    0.0
2014/12/20 00:02:04.000   35.274167826  137.014853610    90.3587   5   9  30.0000  30.0000  30.0000   0.0000  -0.0000   0.0000   0.00    0.0
2014/12/20 00:02:05.000   35.274238667  137.014834194    90.2495   5   9  30.0000  30.0000  30.0000   0.0000   0.0000   0.0000   0.00    0.0
2014/12/20 00:02:06.000   35.274304203  137.014809177    89.7044   5   9  30.0000  30.0000  30.0000   0.0000   0.0000   0.0000   0.00    0.0
2014/12/20 00:02:07.000   35.274374226  137.014778187    89.9090   5   9  30.0000  30.0000  30.0000   0.0000   0.0000   0.0000   0.00    0.0
2014/12/20 00:02:08.000   35.274441387  137.014745941    89.5035   5   9  30.0000  30.0000  30.0000   0.0000   0.0000   0.0000   0.00    0.0
2014/12/20 00:02:09.000   35.274504511  137.014699315    89.0841   5   9  30.0000  30.0000  30.0000   0.0000  -0.0000   0.0000   0.00    0.0
2014/12/20 00:02:10.000   35.274561090  137.014651337    89.3116   5   9  30.0000  30.0000  30.0000   0.0000   0.0000   0.0000   0.00    0.0
2014/12/20 00:02:11.000   35.274619756  137.014595879    89.7857   5   9  30.0000  30.0000  30.0000   0.0000   0.0000   0.0000   0.00    0.0
2014/12/20 00:02:12.000   35.274671578  137.014533242    88.4289   5   9  30.0000  30.0000  30.0000  -0.0000   0.0000   0.0000   0.00    0.0
2014/12/20 00:02:13.000   35.274716738  137.014469649    88.9566   5   9  30.0000  30.0000  30.0000   0.0000   0.0000  -0.0000   0.00    0.0
2014/12/20 00:02:14.000   35.274757598  137.014399550    87.9601   5   9  30.0000  30.0000  30.0000   0.0000   0.0000   0.0000   0.00    0.0
2014/12/20 00:02:15.000   35.274799360  137.014323657    87.7531   5   9  30.0000  30.0000  30.0000   0.0000   0.0000   0.0000   0.00    0.0
2014/12/20 00:02:16.000   35.274831101  137.014242139    88.3916   5   9  30.0000  30.0000  30.0000   0.0000   0.0000  -0.0000   0.00    0.0
2014/12/20 00:02:17.000   35.274859670  137.014158357    87.4228   5   9  30.0000  30.0000  30.0000   0.0000   0.0000   0.0000   0.00    0.0
2014/12/20 00:02:18.000   35.274879517  137.014076797    88.4202   5   9  30.0000  30.0000  30.0000   0.0000   0.0000  -0.0000   0.00    0.0
2014/12/20 00:02:19.000   35.274898492  137.013991418    87.8204   5   9  30.0000  30.0000  30.0000   0.0000  -0.0000   0.0000   0.00    0.0
2014/12/20 00:02:20.000   35.274908799  137.013902001    87.9912   5   9  30.0000  30.0000  30.0000   0.0000  -0.0000   0.0000   0.00    0.0
2014/12/20 00:02:21.000   35.274912603  137.013818283    88.7636   5   9  30.0000  30.0000  30.0000   0.0000   0.0000  -0.0000   0.00    0.0
2014/12/20 00:02:22.000   35.274910695  137.013731419    89.4515   5   9  30.0000  30.0000  30.0000   0.0000  -0.0000  -0.0000   0.00    0.0
2014/12/20 00:02:23.000   35.274908664  137.013641353    88.6713   5   9  30.0000  30.0000  30.0000  -0.0000  -0.0000   0.0000   0.00    0.0
2014/12/20 00:02:24.000   35.274896234  137.013552970    88.6883   5   9  30.0000  30.0000  30.0000   0.0000  -0.0000   0.0000   0.00    0.0
2014/12/20 00:02:25.000   35.274877531  137.013468221    88.6617   5   9  30.0000  30.0000  30.0000   0.0000   0.0000  -0.0000   0.00    0.0
2014/12/20 00:02:26.000   35.274855205  137.013387864    90.2607   5   9  30.0000  30.0000  30.0000   0.0000   0.0000  -0.0000   0.00    0.0
2014/12/20 00:02:27.000   35.274829260  137.013305373    90.5992   5   9  30.0000  30.0000  30.0000   0.0000   0.0000  -0.0000   0.00    0.0
2014/12/20 00:02:28.000   35.274793640  137.013227210    89.8240   5   9  30.0000  30.0000  30.0000   0.0000   0.0000   0.0000   0.00    0.0
2014/12/20 00:02:29.000   35.274752391  137.013150624    89.1006   5   9  30.0000  30.0000  30.0000   0.0000   0.0000  -0.0000   0.00    0.0
2014/12/20 00:02:30.000   35.274708777  137.013081324    89.5922   5   9  30.0000  30.0000  30.0000   0.0000   0.0000  -0.0000   0.00    0.0
2014/12/20 00:02:31.000   35.274662152  137.013014310    89.4844   5   9  30.0000  30.0000  30.0000  -0.0000   0.0000   0.0000   0.00    0.0
2014/12/20 00:02:32.000   35.274610800  137.012952551    89.5864   5   9  30.0000  30.0000  30.0000   0.0000   0.0000   0.0000   0.00    0.0
2014/12/20 00:02:33.000   35.274555943  137.012892854    89.1375   5   9  30.0000  30.0000  30.0000   0.0000   0.0000  -0.0000   0.00    0.0
2014/12/20 00:02:34.000   35.274495364  137.012846165    89.5129   5   9  30.0000  30.0000  30.0000  -0.0000  -0.0000   0.0000   0.00    0.0
2014/12/20 00:02:35.000   35.274432523  137.012802819    88.7231   5   9  30.0000  30.0000  30.0000   0.0000   0.0000   0.0000   0.00    0.0
2014/12/20 00:02:36.000   35.274368586  137.012765327    90.1320   5   9  30.0000  30.0000  30.0000   0.0000   0.0000   0.0000   0.00    0.0
2014/12/20 00:02:37.000   35.274297563  137.012735500    90.9494   5   9  30.0000  30.0000  30.0000   0.0000   0.0000   0.0000   0.00    0.0
2014/12/20 00:02:38.000   35.274229494  137.012714425    91.2189   5   9  30.0000  30.0000  30.0000   0.0000   0.0000  -0.0000   0.00    0.0
2014/12/20 00:02:39.000   35.274160935  137.012690596    91.0988   5   9  30.0000  30.0000  30.0000   0.0000   0.0000   0.0000   0.00    0.0
2014/12/20 00:02:40.000   35.274092223  137.012676257    90.9348   5   9  30.0000  30.0000  30.0000   0.0000   0.0000  -0.0000   0.00    0.0
2014/12/20 00:02:41.000   35.274021393  137.012670274    90.5744   5   9  30.0000  30.0000  30.0000   0.0000  -0.0000   0.0000   0.00    0.0
2014/12/20 00:02:42.000   35.273950596  137.012672744    89.5854   5   9  30.0000  30.0000  30.0000   0.0000   0.0000   0.0000   0.00    0.0
2014/12/20 00:02:43.000   35.273881486  137.012680644    88.9661   5   9  30.0000  30.0000  30.0000  -0.0000   0.0000   0.0000   0.00    0.0
2014/12/20 00:02:44.000   35.273810378  137.012700211    89.3862   5   9  30.0000  30.0000  30.0000   0.0000   0.0000  -0.0000   0.00    0.0
2014/12/20 00:02:45.000   35.273742735  137.012723180    89.3386   5   9  30.0000  30.0000  30.0000   0.0000  -0.0000   0.0000   0.00    0.0
2014/12/20 00:02:46.000   35.273673978  137.012752617    88.7283   5   9  30.0000  30.0000  30.0000   0.0000  -0.0000   0.0000   0.00    0.0
2014/12/20 00:02:47.000   35.273609575  137.012789838    89.2223   5   9  30.0000  30.0000  30.0000   0.0000   0.0000   0.0000   0.00    0.0
2014/12/20 00:02:48.000   35.273546839  137.012834577    89.5252   5   9  30.0000  30.0000  30.0000   0.0000  -0.0000   0.0000   0.00    0.0
2014/12/20 00:02:49.000   35.273486765  137.012883311    89.4284   5   9  30.0000  30.0000  30.0000   0.0000   0.0000   0.0000   0.00    0.0
2014/12/20 00:02:50.000   35.273428985  137.012937548    89.6582   5   9  30.0000  30.0000  30.0000   0.0000  -0.0000  -0.0000   0.00    0.0
2014/12/20 00:02:51.000   35.273375284  137.013000768    90.0422   5   9  30.0000  30.0000  30.0000   0.0000   0.0000  -0.0000   0.00    0.0
2014/12/20 00:02:52.000   35.273323420  137.013069265    91.0985   5   9  30.0000  30.0000  30.0000   0.0000   0.0000   0.0000   0.00    0.0
2014/12/20 00:02:53.000   35.273281236  137.013136906    90.0421   5   9  30.0000  30.0000  30.0000   0.0000  -0.0000   0.0000   0.00    0.0
2014/12/20 00:02:54.000   35.273243053  137.013210212    89.2613   5   9  30.0000  30.0000  30.0000  -0.0000  -0.0000   0.0000   0.00    0.0
2014/12/20 00:02:55.000   35.273207300  137.013286404    89.5866   5   9  30.0000  30.0000  30.0000   0.0000  -0.0000  -0.0000   0.00    0.0
2014/12/20 00:02:56.000   35.273178879  137.013365641    88.9209   5   9  30.0000  30.0000  30.0000   0.0000  -0.0000   0.0000   0.00    0.0
2014/12/20 00:02:57.000   35.273151254  137.013453662    90.3949   5   9  30.0000  30.0000  30.0000   0.0000   0.0000  -0.0000   0.00    0.0
2014/12/20 00:02:58.000   35.273132564  137.013535670    89.7946   5   9  30.0000  30.0000  30.0000   0.0000   0.0000   0.0000   0.00    0.0
2014/12/20 00:02:59.000   35.273121567  137.013623940    89.2800   5   9  30.0000  30.0000  30.0000  -0.0000   0.0000   0.0000   0.00    0.0
2014/12/20 00:03:00.000   35.273115163  137.013708246    88.9513   5   9  30.0000  30.0000  30.0000  -0.0000   0.0000   0.0000   0.00    0.0
2014/12/20 00:03:01.000   35.273108753  137.013796621    89.4174   5   9  30.0000  30.0000  30.0000   0.0000  -0.0000   0.0000   0.00    0.0
2014/12/20 00:03:02.000   35.273117911  137.013882032    88.9454   5   9  30.0000  30.0000  30.0000   0.0000   0.0000   0.0000   0.00    0.0
2014/12/20 00:03:03.000   35.273128139  137.013971518    88.4173   5   9  30.0000  30.0000  30.0000  -0.0000   0.0000  -0.0000   0.00    0.0
2014/12/20 00:03:04.000   35.273147033  137.014053238    86.9939   5   9  30.0000  30.0000  30.0000   0.0000   0.0000   0.0000   0.00    0.0
2014/12/20 00:03:05.000   35.273165642  137.014136665    87.4367   5   9  30.0000  30.0000  30.0000   0.0000   0.0000  -0.0000   0.00    0.0
2014/12/20 00:03:06.000   35.273196212  137.014216229    88.1779   5   9  30.0000  30.0000  30.0000   0.0000   0.0000   0.0000   0.00    0.0
2014/12/20 00:03:07.000   35.273224281  137.014298859    88.4380   5   9  30.0000  30.0000  30.0000   0.0000  -0.0000   0.0000   0.00    0.0
2014/12/20 00:03:08.000   35.273261184  137.014377290    88.1750   5   9  30.0000  30.0000  30.0000   0.0000   0.0000   0.0000   0.00    0.0
2014/12/20 00:03:09.000   35.273304117  137.014450381    88.8230   5   9  30.0000  30.0000  30.0000   0.0000  -0.0000   0.0000   0.00    0.0
2014/12/20 00:03:10.000   35.273352545  137.014517750    89.0156   5   9  30.0000  30.0000  30.0000   0.0000   0.0000  -0.0000   0.00    0.0
2014/12/20 00:03:11.000   35.273404588  137.014576763    89.4688   5   9  30.0000  30.0000  30.0000   0.0000  -0.0000   0.0000   0.00    0.0
2014/12/20 00:03:12.000   35.273459663  137.014633676    89.0237   5   9  30.0000  30.0000  30.0000   0.0000   0.0000   0.0000   0.00    0.0
2014/12/20 00:03:13.000   35.273516161  137.014683663    89.6103   5   9  30.0000  30.0000  30.0000  -0.0000   0.0000   0.0000   0.00    0.0
2014/12/20 00:03:14.000   35.273576138  137.014731046    89.9643   5   9  30.0000  30.0000  30.0000   0.0000   0.0000   0.0000   0.00    0.0
2014/12/20 00:03:15.000   35.273641247  137.014766609    88.5789   5   9  30.0000  30.0000  30.0000   0.0000   0.0000   0.0000   0.00    0.0
2014/12/20 00:03:16.000   35.273706225  137.014803093    90.0053   5   9  30.0000  30.0000  30.0000   0.0000   0.0000   0.0000   0.00    0.0
2014/12/20 00:03:17.000   35.273775259  137.014828328    89.1124   5   9  30.0000  30.0000  30.0000   0.0000  -0.0000   0.0000   0.00    0.0
2014/12/20 00:03:18.000   35.273845460  137.014845663    88.5190   5   9  30.0000  30.0000  30.0000   0.0000  -0.0000   0.0000   0.00    0.0
2014/12/20 00:03:19.000   35.273916321  137.014861891    87.8481   5   9  30.0000  30.0000  30.0000   0.0000   0.0000   0.0000   0.00    0.0
2014/12/20 00:03:20.000   35.273988090  137.014867106    88.6291   5   9  30.0000  30.0000  30.0000   0.0000  -0.0000   0.0000   0.00    0.0
2014/12/20 00:03:21.000   35.274058260  137.014865721    89.5410   5   9  30.0000  30.0000  30.0000   0.0000   0.0000   0.0000   0.00    0.0
2014/12/20 00:03:22.000   35.274128732  137.014859697    89.7437   5   9  30.0000  30.0000  30.0000   0.0000   0.0000  -0.0000   0.00    0.0
2014/12/20 00:03:23.000   35.274197579  137.014845522    89.8196   5   9  30.0000  30.0000  30.0000   0.0000   0.0000   0.0000   0.00    0.0
2014/12/20 00:03:24.000   35.274267265  137.014825820    89.7925   5   9  30.0000  30.0000  30.0000   0.0000   0.0000  -0.0000   0.00    0.0
2014/12/20 00:03:25.000   35.274337716  137.014800177    90.5417   5   9  30.0000  30.0000  30.0000   0.0000   0.0000   0.0000   0.00    0.0
2014/12/20 00:03:26.000   35.274403702  137.014768241    91.0854   5   9  30.0000  30.0000  30.0000   0.0000   0.0000   0.0000   0.00    0.0
2014/12/20 00:03:27.000   35.274466771  137.014729735    89.8160   5   9  30.0000  30.0000  30.0000   0.0000  -0.0000   0.0000   0.00    0.0
2014/12/20 00:03:28.000   35.274528868  137.014678799    88.8627   5   9  30.0000  30.0000  30.0000   0.0000  -0.0000   0.0000   0.00    0.0
2014/12/20 00:03:29.000   35.274583953  137.014630624    89.6211   5   9  30.0000  30.0000  30.0000  -0.0000  -0.0000   0.0000   0.00    0.0
2014/12/20 00:03:30.000   35.274641862  137.014569524    89.6123   5   9  30.0000  30.0000  30.0000  -0.0000   0.0000   0.0000   0.00    0.0
2014/12/20 00:03:31.000   35.274691367  137.014503278    88.7450   5   9  30.0000  30.0000  30.0000   0.0000   0.0000   0.0000   0.00    0.0
2014/12/20 00:03:32.000   35.274738982  137.014432071    89.6383   5   9  30.0000  30.0000  30.0000   0.0000   0.0000  -0.0000   0.00    0.0
2014/12/20 00:03:33.000   35.274778421  137.014357502    89.5341   5   9  30.0000  30.0000  30.0000   0.0000   0.0000   0.0000   0.00    0.0
2014/12/20 00:03:34.000   35.274814885  137.014279222    90.6969   5   9  30.0000  30.0000  30.0000   0.0000   0.0000  -0.0000   0.00    0.0
2014/12/20 00:03:35.000   35.274844412  137.014204121    91.5714   5   9  30.0000  30.0000  30.0000   0.0000  -0.0000  -0.0000   0.00    0.0
2014/12/20 00:03:36.000   35.274869771  137.014124646    91.0413   5   9  30.0000  30.0000  30.0000  -0.0000  -0.0000   0.0000   0.00    0.0
2014/12/20 00:03:37.000   35.274892355  137.014036283    89.7012   5   9  30.0000  30.0000  30.0000   0.0000   0.0000  -0.0000   0.00    0.0
2014/12/20 00:03:38.000   35.274911797  137.013945942    88.1385   5   9  30.0000  30.0000  30.0000   0.0000  -0.0000   0.0000   0.00    0.0
2014/12/20 00:03:39.000   35.274923679  137.013853313    88.0486   5   9  30.0000  30.0000  30.0000   0.0000  -0.0000  -0.0000   0.00    0.0
2014/12/20 00:03:40.000   35.274923588  137.013767589    86.9711   5   9  30.0000  30.0000  30.0000   0.0000  -0.0000   0.0000   0.00    0.0
2014/12/20 00:03:41.000   35.274917006  137.013683004    87.8246   5   9  30.0000  30.0000  30.0000   0.0000   0.0000   0.0000   0.00    0.0
2014/12/20 00:03:42.000   35.274904814  137.013595717    88.3007   5   9  30.0000  30.0000  30.0000   0.0000   0.0000   0.0000   0.00    0.0
2014/12/20 00:03:43.000   35.274889657  137.013510235    87.6458   5   9  30.0000  30.0000  30.0000   0.0000   0.0000   0.0000   0.00    0.0
2014/12/20 00:03:44.000   35.274866536  137.013423794    87.5017   5   9  30.0000  30.0000  30.0000   0.0000   0.0000   0.0000   0.00    0.0
2014/12/20 00:03:45.000   35.274839736  137.013341107    87.3675   5   9  30.0000  30.0000  30.0000   0.0000   0.0000   0.0000   0.00    0.0
2014/12/20 00:03:46.000   35.274809954  137.013262617    87.4503   5   9  30.0000  30.0000  30.0000   0.0000   0.0000   0.0000   0.00    0.0
2014/12/20 00:03:47.000   35.274776030  137.013187910    86.5670   5   9  30.0000  30.0000  30.0000  -0.0000   0.0000   0.0000   0.00    0.0
2014/12/20 00:03:48.000   35.274739549  137.013116203    87.0914   5   9  30.0000  30.0000  30.0000   0.0000   0.0000   0.0000   0.00    0.0
2014/12/20 00:03:49.000   35.274695465  137.013043731    87.0070   5   9  30.0000  30.0000  30.0000   0.0000   0.0000   0.0000   0.00    0.0
2014/12/20 00:03:50.000   35.274650215  137.012977752    86.7570   5   9  30.0000  30.0000  30.0000   0.0000   0.0000   0.0000   0.00    0.0
2014/12/20 00:03:51.000   35.274601000  137.012915252    86.4378   5   9  30.0000  30.0000  30.0000   0.0000   0.0000   0.0000   0.00    0.0
2014/12/20 00:03:52.000   35.274540836  137.012865460    87.3818   5   9  30.0000  30.0000  30.0000  -0.0000   0.0000  -0.0000   0.00    0.0
2014/12/20 00:03:53.000   35.274482994  137.012817811    87.1696   5   9  30.0000  30.0000  30.0000   0.0000   0.0000   0.0000   0.00    0.0
2014/12/20 00:03:54.000   35.274419833  137.012777610    87.8307   5   9  30.0000  30.0000  30.0000   0.0000  -0.0000  -0.0000   0.00    0.0
2014/12/20 00:03:55.000   35.274348674  137.012747417    88.1105   5   9  30.0000  30.0000  30.0000   0.0000   0.0000  -0.0000   0.00    0.0
2014/12/20 00:03:56.000   35.274276864  137.012715386    88.6313   5   9  30.0000  30.0000  30.0000   0.0000   0.0000   0.0000   0.00    0.0
2014/12/20 00:03:57.000   35.274205592  137.012695316    88.4007   5   9  30.0000  30.0000  30.0000   0.0000   0.0000  -0.0000   0.00    0.0
2014/12/20 00:03:58.000   35.274131703  137.012678596    88.7098   5   9  30.0000  30.0000  30.0000   0.0000   0.0000  -0.0000   0.00    0.0
2014/12/20 00:03:59.000   35.274063708  137.012667607    88.4552   5   9  30.0000  30.0000  30.0000   0.0000  -0.0000   0.0000   0.00    0.0
2014/12/20 00:04:00.000   35.273988980  137.012667103    88.1727   5   9  30.0000  30.0000  30.0000   0.0000  -0.0000   0.0000   0.00    0.0
2014/12/20 00:04:01.000   35.273912695  137.012676400    88.9118   5   9  30.0000  30.0000  30.0000   0.0000   0.0000   0.0000   0.00    0.0
2014/12/20 00:04:02.000   35.273841912  137.012689600    89.1531   5   9  30.0000  30.0000  30.0000   0.0000  -0.0000   0.0000   0.00    0.0
2014/12/20 00:04:03.000   35.273772556  137.012708614    88.5137   5   9  30.0000  30.0000  30.0000   0.0000   0.0000   0.0000   0.00    0.0
2014/12/20 00:04:04.000   35.273706502  137.012738158    89.1077   5   9  30.0000  30.0000  30.0000   0.0000  -0.0000   0.0000   0.00    0.0
2014/12/20 00:04:05.000   35.273640099  137.012774672    89.8357   5   9  30.0000  30.0000  30.0000   0.0000   0.0000   0.0000   0.00    0.0
2014/12/20 00:04:06.000   35.273576240  137.012813877    89.9597   5   9  30.0000  30.0000  30.0000   0.0000   0.0000   0.0000   0.00    0.0
2014/12/20 00:04:07.000   35.273513744  137.012861273    90.4974   5   9  30.0000  30.0000  30.0000   0.0000   0.0000   0.0000   0.00    0.0
2014/12/20 00:04:08.000   35.273455007  137.012911851    88.5091   5   9  30.0000  30.0000  30.0000   0.0000   0.0000  -0.0000   0.00    0.0
2014/12/20 00:04:09.000   35.273403756  137.012965986    88.6452   5   9  30.0000  30.0000  30.0000  -0.0000   0.0000  -0.0000   0.00    0.0
2014/12/20 00:04:10.000   35.273353334  137.013027592    89.4814   5   9  30.0000  30.0000  30.0000   0.0000   0.0000   0.0000   0.00    0.0
2014/12/20 00:04:11.000   35.273309934  137.013090279    87.7827   5   9  30.0000  30.0000  30.0000   0.0000   0.0000   0.0000   0.00    0.0
2014/12/20 00:04:12.000   35.273266949  137.013164403    87.6606   5   9  30.0000  30.0000  30.0000   0.0000   0.0000   0.0000   0.00    0.0
2014/12/20 00:04:13.000   35.273226731  137.013242146    88.1804   5   9  30.0000  30.0000  30.0000   0.0000   0.0000   0.0000   0.00    0.0
2014/12/20 00:04:14.000   35.273193036  137.013320020    87.8215   5   9  30.0000  30.0000  30.0000  -0.0000  -0.0000   0.0000   0.00    0.0
2014/12/20 00:04:15.000   35.273168024  137.013400720    87.8136   5   9  30.0000  30.0000  30.0000   0.0000   0.0000  -0.0000   0.00    0.0
2014/12/20 00:04:16.000   35.273141354  137.013485608    88.5999   5   9  30.0000  30.0000  30.0000   0.0000   0.0000   0.0000   0.00    0.0
2014/12/20 00:04:17.000   35.273127996  137.013570736    88.2856   5   9  30.0000  30.0000  30.0000   0.0000   0.0000   0.0000   0.00    0.0
2014/12/20 00:04:18.000   35.273112653  137.013660508    89.0018   5   9  30.0000  30.0000  30.0000   0.0000   0.0000   0.0000   0.00    0.0
2014/12/20 00:04:19.000   35.273108451  137.013750346    89.3465   5   9  30.0000  30.0000  30.0000   0.0000   0.0000   0.0000   0.00    0.0
2014/12/20 00:04:20.000   35.273112495  137.013838385    89.4383   5   9  30.0000  30.0000  30.0000   0.0000   0.0000   0.0000   0.00    0.0
2014/12/20 00:04:21.000   35.273117565  137.013926322    88.5042   5   9  30.0000  30.0000  30.0000   0.0000  -0.0000   0.0000   0.00    0.0
2014/12/20 00:04:22.000   35.273128472  137.014011017    88.8782   5   9  30.0000  30.0000  30.0000   0.0000   0.0000  -0.0000   0.00    0.0
2014/12/20 00:04:23.000   35.273154251  137.014090293    88.5373   5   9  30.0000  30.0000  30.0000   0.0000   0.0000  -0.0000   0.00    0.0
2014/12/20 00:04:24.000   35.273181735  137.014172059    88.5536   5   9  30.0000  30.0000  30.0000   0.0000  -0.0000   0.0000   0.00    0.0
2014/12/20 00:04:25.000   35.273208129  137.014252655    88.5422   5   9  30.0000  30.0000  30.0000   0.0000   0.0000   0.0000   0.00    0.0
2014/12/20 00:04:26.000   35.273241928  137.014328786    88.0419   5   9  30.0000  30.0000  30.0000  -0.0000  -0.0000   0.0000   0.00    0.0
2014/12/20 00:04:27.000   35.273276654  137.014402080    87.9307   5   9  30.0000  30.0000  30.0000  -0.0000   0.0000   0.0000   0.00    0.0
2014/12/20 00:04:28.000   35.273321701  137.014473871    87.8849   5   9  30.0000  30.0000  30.0000   0.0000   0.0000  -0.0000   0.00    0.0
2014/12/20 00:04:29.000   35.273370246  137.014543382    87.3865   5   9  30.0000  30.0000  30.0000   0.0000   0.0000   0.0000   0.00    0.0
2014/12/20 00:04:30.000   35.273424800  137.014600877    86.5508   5   9  30.0000  30.0000  30.0000   0.0000   0.0000  -0.0000   0.00    0.0
2014/12/20 00:04:31.000   35.273482191  137.014650150    86.3641   5   9  30.0000  30.0000  30.0000   0.0000   0.0000  -0.0000   0.00    0.0
2014/12/20 00:04:32.000   35.273542283  137.014702745    88.0049   5   9  30.0000  30.0000  30.0000   0.0000   0.0000   0.0000   0.00    0.0
2014/12/20 00:04:33.000   35.273604139  137.014743993    88.2587   5   9  30.0000  30.0000  30.0000   0.0000   0.0000  -0.0000   0.00    0.0
2014/12/20 00:04:34.000   35.273669721  137.014781473    88.7647   5   9  30.0000  30.0000  30.0000   0.0000   0.0000   0.0000   0.00    0.0
2014/12/20 00:04:35.000   35.273738451  137.014813483    88.8187   5   9  30.0000  30.0000  30.0000   0.0000   0.0000  -0.0000   0.00    0.0
2014/12/20 00:04:36.000   35.273810489  137.014835269    88.3092   5   9  30.0000  30.0000  30.0000   0.0000   0.0000  -0.0000   0.00    0.0
2014/12/20 00:04:37.000   35.273882747  137.014852359    88.7458   5   9  30.0000  30.0000  30.0000   0.0000   0.0000   0.0000   0.00    0.0
2014/12/20 00:04:38.000   35.273953840  137.014863896    87.2475   5   9  30.0000  30.0000  30.0000   0.0000   0.0000  -0.0000   0.00    0.0
2014/12/20 00:04:39.000   35.274027682  137.014867582    87.1230   5   9  30.0000  30.0000  30.0000  -0.0000   0.0000   0.0000   0.00    0.0
2014/12/20 00:04:40.000   35.274095760  137.014864625    88.2591   5   9  30.0000  30.0000  30.0000   0.0000   0.0000   0.0000   0.00    0.0
2014/12/20 00:04:41.000   35.274169231  137.014852645    88.4650   5   9  30.0000  30.0000  30.0000   0.0000   0.0000   0.0000   0.00    0.0
2014/12/20 00:04:42.000   35.274235014  137.014834988    88.6702   5   9  30.0000  30.0000  30.0000   0.0000   0.0000  -0.0000   0.00    0.0
2014/12/20 00:04:43.000   35.274304566  137.014809613    87.7464   5   9  30.0000  30.0000  30.0000   0.0000   0.0000  -0.0000   0.00    0.0
2014/12/20 00:04:44.000   35.274369407  137.014777079    88.8834   5   9  30.0000  30.0000  30.0000   0.0000   0.0000  -0.0000   0.00    0.0
2014/12/20 00:04:45.000   35.274435335  137.014739310    89.6229   5   9  30.0000  30.0000  30.0000   0.0000  -0.0000   0.0000   0.00    0.0
2014/12/20 00:04:46.000   35.274494748  137.014698238    89.6004   5   9  30.0000  30.0000  30.0000   0.0000   0.0000  -0.0000   0.00    0.0
2014/12/20 00:04:47.000   35.274553019  137.014645741    88.8080   5   9  30.0000  30.0000  30.0000   0.0000  -0.0000   0.0000   0.00    0.0
2014/12/20 00:04:48.000   35.274606825  137.014590182    89.9455   5   9  30.0000  30.0000  30.0000  -0.0000   0.0000   0.0000   0.00    0.0
2014/12/20 00:04:49.000   35.274662227  137.014531291    89.5277   5   9  30.0000  30.0000  30.0000   0.0000   0.0000   0.0000   0.00    0.0
2014/12/20 00:04:50.000   35.274713030  137.014465515    89.3106   5   9  30.0000  30.0000  30.0000   0.0000  -0.0000   0.0000   0.00    0.0
2014/12/20 00:04:51.000   35.274759452  137.014391356    87.7944   5   9  30.0000  30.0000  30.0000  -0.0000   0.0000   0.0000   0.00    0.0
2014/12/20 00:04:52.000   35.274795801  137.014317703    86.8840   5   9  30.0000  30.0000  30.0000  -0.0000   0.0000   0.0000   0.00    0.0
2014/12/20 00:04:53.000   35.274833166  137.014238664    87.8022   5   9  30.0000  30.0000  30.0000   0.0000   0.0000   0.0000   0.00    0.0
2014/12/20 00:04:54.000   35.274857852  137.014162742    88.4514   5   9  30.0000  30.0000  30.0000   0.0000   0.0000  -0.0000   0.00    0.0
2014/12/20 00:04:55.000   35.274879102  137.014082033    88.4891   5   9  30.0000  30.0000  30.0000   0.0000   0.0000   0.0000   0.00    0.0
2014/12/20 00:04:56.000   35.274895309  137.013996754    88.1708   5   9  30.0000  30.0000  30.0000   0.0000   0.0000  -0.0000   0.00    0.0
2014/12/20 00:04:57.000   35.274907301  137.013912225    89.1795   5   9  30.0000  30.0000  30.0000  -0.0000   0.0000   0.0000   0.00    0.0
2014/12/20 00:04:58.000   35.274913654  137.013824353    90.0185   5   9  30.0000  30.0000  30.0000   0.0000   0.0000   0.0000   0.00    0.0
2014/12/20 00:04:59.000   35.274912652  137.013735662    89.6212   5   9  30.0000  30.0000  30.0000   0.0000   0.0000   0.0000   0.00    0.0
2014/12/20 00:05:00.000   35.274901030  137.013644370    90.3524   5   7  30.0000  30.0000  30.0000   0.0000   0.0000  -0.0000   0.00    0.0
